name,address,lat,lon
Community Food Pantry,123 Main St,40.7128,-74.0060
East Side Pantry,200 East Ave,40.7306,-73.9352
West End Pantry,50 West St,40.7580,-73.9855
Northpoint Pantry,10 North Rd,40.7851,-73.9683
Southside Pantry,500 South Pkwy,40.7484,-73.9857
